[
  {
    "name":"London",
    "center": {
      "lat":"51.50089",
      "lng":"-0.12656"
    },
    "poly":"51.45089,-0.17656:51.45089,-0.07656001:51.55089,-0.07656001:51.55089,-0.17656"
  },
  {
    "name":"Birmingham",
    "center": {
      "lat":"52.48391",
      "lng":"-1.892301"
    },
    "poly":"52.43391,-1.942301:52.43391,-1.842301:52.53391,-1.842301:52.53391,-1.942301"
  },
  {
    "name":"Liverpool",
    "center": {
      "lat":"53.40585",
      "lng":"-2.985683"
    },
    "poly":"53.35585,-3.035683:53.35585,-2.935683:53.45585,-2.935683:53.45585,-3.035683"
  },
  {
    "name":"Nottingham",
    "center": {
      "lat":"52.954",
      "lng":"-1.240101"
    },
    "poly":"52.904,-1.290101:52.904,-1.190101:53.004,-1.190101:53.004,-1.290101"
  },
  {
    "name":"Sheffield",
    "center": {
      "lat":"53.39563",
      "lng":"-1.639539"
    },
    "poly":"53.34563,-1.689539:53.34563,-1.589539:53.44563,-1.589539:53.44563,-1.689539"
  },
  {
    "name":"Bristol",
    "center": {
      "lat":"51.46841",
      "lng":"-2.7308"
    },
    "poly":"51.41841,-2.7808:51.41841,-2.6808:51.51841,-2.6808:51.51841,-2.7808"
  },
  {
    "name":"Glasgow",
    "center": {
      "lat":"55.85538",
      "lng":"-4.37254"
    },
    "poly":"55.80538,-4.422541:55.80538,-4.32254:55.90538,-4.32254:55.90538,-4.422541"
  },
  {
    "name":"Leicester",
    "center": {
      "lat":"52.63605",
      "lng":"-1.20114"
    },
    "poly":"52.58606,-1.25114:52.58606,-1.15114:52.68605,-1.15114:52.68605,-1.25114"
  },
  {
    "name":"Edinburgh",
    "center": {
      "lat":"55.94119",
      "lng":"-3.275378"
    },
    "poly":"55.89119,-3.325378:55.89119,-3.225378:55.99119,-3.225378:55.99119,-3.325378"
  },
  {
    "name":"Leeds",
    "center": {
      "lat":"53.80592",
      "lng":"-1.675815"
    },
    "poly":"53.75592,-1.725815:53.75592,-1.625815:53.85592,-1.625815:53.85592,-1.725815"
  },
  {
    "name":"Cardiff",
    "center": {
      "lat":"51.50222",
      "lng":"-3.27509"
    },
    "poly":"51.45222,-3.32509:51.45222,-3.22509:51.55222,-3.22509:51.55222,-3.32509"
  },
  {
    "name":"Manchester",
    "center": {
      "lat":"53.47216",
      "lng":"-2.363545"
    },
    "poly":"53.42216,-2.413545:53.42216,-2.313545:53.52216,-2.313545:53.52216,-2.413545"
  }
]

